region_id,name,lat,lon,urban,decline,students,dual_income_pct,single_parent_pct,area_km2,births_5y,births_proj_5y,birth_change_pct,school_count,care_cap,care_enrolled,care_waitlist,care_util_rate,afterschool_enrolled,afterschool_cap,custom_edu_enrolled,demand_idx,supply_idx,imbal_idx,demand_idx_5y,region_type,type_color,type_label,top3_features,risk_score,birth_rate,region_note,data_note
GJ01,광주 동구,35.1454,126.9228,True,False,5100,46.2,8.1,18.0,2516,2674,6.3,11,403,375,373,93.1,3225,3921,291,0.462,0.3232,1.4295,0.4795,C,#1B4D6B,비위기+공급부족,맞벌이 가구 밀도|신도심 학생 집중|방과후 정원 대비 대기 비율,13,0.81,"구도심·역세권 밀집, 돌봄 수요 집중",학생수: 광주교육청 비례추정 / 맞벌이: 통계청 2023 / 이용인원: 교육부 2023
GJ02,광주 서구,35.1496,126.8863,False,False,12400,49.5,7.8,447.0,6595,7280,10.4,30,1433,1088,58,75.9,7249,7915,454,0.495,0.3348,1.4785,0.5259,D,#27AE60,비위기+균형,출생아수 소폭 감소|이용률 안정|지역 인구 유지,14,0.87,"상무지구·도심 직장인 밀집, 비교적 균형",학생수: 광주교육청 비례추정 / 맞벌이: 통계청 2023 / 이용인원: 교육부 2023
GJ03,광주 남구,35.1328,126.9022,True,False,9500,48.3,7.2,52.1,6350,6921,9.0,20,897,809,148,90.2,5630,7027,517,0.483,0.3236,1.4926,0.5091,C,#1B4D6B,비위기+공급부족,맞벌이 가구 밀도|신도심 학생 집중|방과후 정원 대비 대기 비율,14,0.85,"봉선동 주거밀집, 맞벌이 비율 높아 공급 부족",학생수: 광주교육청 비례추정 / 맞벌이: 통계청 2023 / 이용인원: 교육부 2023
GJ04,광주 북구,35.1746,126.9126,False,False,19700,50.1,8.4,205.2,13427,14917,11.1,47,2745,1781,43,64.9,10417,11521,498,0.501,0.3345,1.4978,0.5344,D,#27AE60,비위기+균형,출생아수 소폭 감소|이용률 안정|지역 인구 유지,14,0.88,"용봉동·일곡지구, 광주 최대 인구 구",학생수: 광주교육청 비례추정 / 맞벌이: 통계청 2023 / 이용인원: 교육부 2023
GJ05,광주 광산구,35.1394,126.7936,True,False,26244,52.7,6.1,43.7,16360,19092,16.7,44,2246,2045,141,91.1,18383,22695,1258,0.527,0.3499,1.5061,0.5798,C,#1B4D6B,비위기+공급부족,맞벌이 가구 밀도|신도심 학생 집중|방과후 정원 대비 대기 비율,13,0.96,"첨단·수완지구 신도심, 젊은 맞벌이 급증",학생수: 광주교육청 비례추정 / 맞벌이: 통계청 2023 / 이용인원: 교육부 2023
JN01,목포시,34.8118,126.3922,False,False,8376,54.8,9.2,613.5,3841,4002,4.2,35,2335,1706,33,73.1,4369,5050,323,0.548,0.4768,1.1493,0.5618,D,#27AE60,비위기+균형,출생아수 소폭 감소|이용률 안정|지역 인구 유지,8,0.78,"서남권 중심도시, 돌봄 공급 안정",학생수: 시사저널(2025) / 맞벌이: 통계청 2023 / 이용인원: 교육부 2023
JN02,여수시,34.7604,127.6622,False,False,9786,58.3,8.7,216.8,6715,7225,7.6,59,2773,1644,19,59.3,4969,5467,426,0.583,0.4785,1.2184,0.6096,D,#27AE60,비위기+균형,출생아수 소폭 감소|이용률 안정|지역 인구 유지,9,0.83,"여수산단 배후, 공단 근로자 자녀 수요 안정",학생수: 시사저널(2025) / 맞벌이: 통계청 2023 / 이용인원: 교육부 2023
JN03,순천시,34.9509,127.4872,True,False,11598,57.1,7.9,47.7,5260,5991,13.9,44,2249,2138,232,95.1,7439,8546,639,0.571,0.4404,1.2965,0.6186,C,#1B4D6B,비위기+공급부족,맞벌이 가구 밀도|신도심 학생 집중|방과후 정원 대비 대기 비율,10,0.92,"전남 제2도시·혁신도시 연계, 돌봄 수요 급증",학생수: 시사저널(2025) / 맞벌이: 통계청 2023 / 이용인원: 교육부 2023
JN04,나주시,35.016,126.7108,False,False,5382,56.4,9.8,208.4,3565,4035,13.2,24,1661,1106,12,66.6,3244,3733,227,0.564,0.5365,1.0513,0.6087,D,#27AE60,비위기+균형,출생아수 소폭 감소|이용률 안정|지역 인구 유지,6,0.91,"빛가람혁신도시 입주 완료, 균형 유지",학생수: 시사저널(2025) / 맞벌이: 통계청 2023 / 이용인원: 교육부 2023
JN05,광양시,34.9409,127.6957,False,False,6438,60.2,7.3,555.8,3321,3985,20.0,29,1934,1156,12,59.8,4075,4664,310,0.602,0.5412,1.1123,0.6742,D,#27AE60,비위기+균형,출생아수 소폭 감소|이용률 안정|지역 인구 유지,6,1.06,"포스코 배후도시, 젊은 직장인 정착으로 안정",학생수: 시사저널(2025) / 맞벌이: 통계청 2023 / 이용인원: 교육부 2023
JN06,무안군,34.9903,126.4818,False,False,4110,57.6,10.4,654.9,2441,2729,11.8,20,1535,984,42,64.1,2643,3049,134,0.576,0.6116,0.9418,0.6168,D,#27AE60,비위기+균형,출생아수 소폭 감소|이용률 안정|지역 인구 유지,5,0.89,"무안국제공항·전남도청, 비감소·균형",학생수: 시사저널(2025) / 맞벌이: 통계청 2023 / 이용인원: 교육부 2023
JN07,담양군,35.3215,126.9881,False,True,1291,60.1,14.2,555.4,685,706,3.1,14,1178,304,1,25.8,369,442,90,0.601,1.0404,0.5777,0.6122,B,#E67E22,위기+공급과잉,돌봄 이용률 저하|학생수 급감|통폐합 예정 학교 수,20,0.98,"광주 근교·죽녹원 관광지, 학생 감소 심화",학생수: 경향신문(2024) / 맞벌이: 통계청 2023 / 이용인원: 교육부 2023
JN08,화순군,35.064,126.9862,False,True,1700,58.8,13.6,501.5,900,871,-3.2,17,2061,499,10,24.2,535,627,127,0.588,1.3524,0.4348,0.5767,B,#E67E22,위기+공급과잉,돌봄 이용률 저하|학생수 급감|통폐합 예정 학교 수,17,0.89,"광주 인접, 시설 여유 있으나 학생 급감",학생수: 학교수 비례추정 / 맞벌이: 통계청 2023 / 이용인원: 교육부 2023
JN09,보성군,34.7717,127.08,False,True,978,62.3,16.1,650.2,505,506,0.3,18,962,352,19,36.6,374,416,54,0.623,1.1396,0.5467,0.6241,B,#E67E22,위기+공급과잉,돌봄 이용률 저하|학생수 급감|통폐합 예정 학교 수,20,0.94,"녹차 산지, 시설 수 대비 이용 아동 부족",학생수: 경향신문(2024) / 맞벌이: 통계청 2023 / 이용인원: 교육부 2023
JN10,해남군,34.5732,126.599,False,True,2000,63.8,15.3,397.6,1235,1482,20.0,22,2964,708,13,23.9,734,825,152,0.638,1.6409,0.3888,0.7146,B,#E67E22,위기+공급과잉,돌봄 이용률 저하|학생수 급감|통폐합 예정 학교 수,16,1.35,"한반도 최남단, 출산율 전국 6위지만 인구 유출 지속",학생수: 학교수 비례추정 / 출산율: 통계청 2023 실측(1.35명) / 이용인원: 교육부 2023
JN11,영암군,34.8003,126.6966,False,True,1850,59.4,14.8,177.9,1007,1024,1.7,16,1892,460,10,24.3,707,871,95,0.594,1.177,0.5047,0.6001,B,#E67E22,위기+공급과잉,돌봄 이용률 저하|학생수 급감|통폐합 예정 학교 수,18,0.96,"대불산단 외곽, 젊은층 유출·시설 과잉",학생수: 학교수 비례추정 / 맞벌이: 통계청 2023 / 이용인원: 교육부 2023
JN12,함평군,35.0655,126.518,False,True,722,61.2,17.3,303.7,408,392,-3.9,11,930,188,0,20.2,263,313,50,0.612,1.4433,0.424,0.5977,B,#E67E22,위기+공급과잉,돌봄 이용률 저하|학생수 급감|통폐합 예정 학교 수,20,0.88,"나비축제 지역, 인구 감소·돌봄 이용률 급락",학생수: 경향신문(2024) / 맞벌이: 통계청 2023 / 이용인원: 교육부 2023
JN13,영광군,35.2772,126.5119,False,True,1801,64.7,13.9,142.7,1101,1321,20.0,15,913,311,0,34.1,506,611,128,0.647,0.6337,1.021,0.7246,B,#E67E22,위기+공급과잉,돌봄 이용률 저하|학생수 급감|통폐합 예정 학교 수,28,1.65,"원전 소재지, 출산율 전국 1위지만 고령화로 학생 급감",학생수: 경향신문(2024) / 출산율: 통계청 2023 전국 1위(1.65명) / 이용인원: 교육부 2023
JN14,장성군,35.3014,126.7847,False,True,1524,59.7,15.6,451.1,890,880,-1.1,13,906,359,9,39.6,647,768,110,0.597,0.7719,0.7734,0.5931,B,#E67E22,위기+공급과잉,돌봄 이용률 저하|학생수 급감|통폐합 예정 학교 수,25,0.92,"광주 광역권 외곽, 통학 수요 유출",학생수: 경향신문(2024) / 맞벌이: 통계청 2023 / 이용인원: 교육부 2023
JN15,곡성군,35.2818,127.2927,False,True,704,61.5,19.8,635.7,388,364,-6.0,8,313,291,190,93.0,126,142,72,0.615,0.5482,1.1219,0.5929,A,#C0392B,위기+공급부족,돌봄 대기자 증가율|맞벌이 가구 비율|학생수 감소율,36,0.85,"섬진강 상류 오지, 시설 전무에 가까운 공급 부족",학생수: 경향신문(2024) / 맞벌이: 통계청 2023 / 이용인원: 교육부 2023
JN16,구례군,35.2026,127.4631,False,True,720,60.8,18.4,434.8,358,344,-3.9,11,217,195,121,89.9,116,127,64,0.608,0.3933,1.5459,0.5938,A,#C0392B,위기+공급부족,돌봄 대기자 증가율|맞벌이 가구 비율|학생수 감소율,43,0.88,"지리산 자락, 읍내 외 돌봄 공백 심각",학생수: 경향신문(2024) / 맞벌이: 통계청 2023 / 이용인원: 교육부 2023
JN17,고흥군,34.6082,127.2768,False,True,1463,62.1,20.3,481.0,662,631,-4.6,20,369,355,170,96.2,290,330,103,0.621,0.3498,1.7753,0.6039,A,#C0392B,위기+공급부족,돌봄 대기자 증가율|맞벌이 가구 비율|학생수 감소율,49,0.87,"고령화율 전국 최상위, 잔류 아동 돌봄 공백",학생수: 경향신문(2024) / 맞벌이: 통계청 2023 / 이용인원: 교육부 2023
JN18,장흥군,34.6816,126.9072,False,True,1169,61.4,18.9,227.4,768,754,-1.8,14,276,257,110,93.1,316,346,119,0.614,0.3714,1.6532,0.6074,A,#C0392B,위기+공급부족,돌봄 대기자 증가율|맞벌이 가구 비율|학생수 감소율,44,0.91,"군 전체 학생 감소, 남은 돌봄 수요 미충족",학생수: 경향신문(2024) / 맞벌이: 통계청 2023 / 이용인원: 교육부 2023
JN19,강진군,34.6408,126.7696,False,True,981,63.2,17.6,325.6,639,766,20.0,14,289,253,87,87.5,199,229,118,0.632,0.4137,1.5277,0.7078,A,#C0392B,위기+공급부족,돌봄 대기자 증가율|맞벌이 가구 비율|학생수 감소율,41,1.47,"다산 문화권, 출산율 전국 2위지만 읍 외 농촌 돌봄 공급 부재",학생수: 경향신문(2024) / 출산율: 통계청 2023 전국 2위(1.47명) / 이용인원: 교육부 2023
JN20,완도군,34.3109,126.755,False,True,1826,61.9,21.2,354.5,1047,1042,-0.4,23,584,518,129,88.7,469,560,202,0.619,0.454,1.3634,0.6175,A,#C0392B,위기+공급부족,돌봄 대기자 증가율|맞벌이 가구 비율|학생수 감소율,40,0.93,"도서 지역, 해상 교통 의존으로 돌봄 접근성 최저",학생수: 경향신문(2024) / 맞벌이: 통계청 2023 / 이용인원: 교육부 2023
JN21,진도군,34.487,126.263,False,True,945,62.7,20.8,131.1,556,542,-2.5,17,263,247,217,93.9,174,193,99,0.627,0.3847,1.6298,0.6176,A,#C0392B,위기+공급부족,돌봄 대기자 증가율|맞벌이 가구 비율|학생수 감소율,45,0.9,"진도대교 연결 섬, 읍 외 면부 돌봄 공급 거의 없음",학생수: 경향신문(2024) / 맞벌이: 통계청 2023 / 이용인원: 교육부 2023
JN22,신안군,34.8231,126.1073,False,True,709,63.4,22.1,416.0,324,311,-3.9,27,273,265,51,97.1,156,188,72,0.634,0.5027,1.2612,0.6192,A,#C0392B,위기+공급부족,돌봄 대기자 증가율|맞벌이 가구 비율|학생수 감소율,39,0.88,"1004섬 군도, 섬별 분산으로 시설 접근 불가",학생수: 경향신문(2024) / 맞벌이: 통계청 2023 / 이용인원: 교육부 2023
